{"type":"FeatureCollection","features":[{"type":"Feature","properties":{"marker-color":"#06f963","marker-size":"medium","marker-symbol":"","Name":"place for tourists and hipsters","Color":"","Info":"Mercado tradicional","Love":"hot","Size":""},"geometry":{"type":"Point","coordinates":[-9.133694,39.403786]}},{"type":"Feature","properties":{"Name":"Nice park good area","Info":"Parque D.Carlos I","Love":"nice","Color":"","Size":""},"geometry":{"type":"Point","coordinates":[-9.133254,39.401274]}},{"type":"Feature","properties":{"Name":"Todo a 5 €","Color":"","Info":"mercado ","Love":"mercado","Size":""},"geometry":{"type":"Point","coordinates":[-9.122429,39.406572]}},{"type":"Feature","properties":{"Name":"Passeio dos tristes","Info":"","Love":"ennui"},"geometry":{"type":"Point","coordinates":[-9.21725,39.427227]}},{"type":"Feature","properties":{"Name":"Caravan paradise","Info":"Caravanismo","Love":"bad"},"geometry":{"type":"Point","coordinates":[-9.221177,39.428652]}},{"type":"Feature","properties":{"Name":"Ressacas","Size":12},"geometry":{"type":"Point","coordinates":[-9.136215,39.403426]}},{"type":"Feature","properties":{"Name":"Nature","Love":"nature"},"geometry":{"type":"Point","coordinates":[-9.128137,39.400586]}},{"type":"Feature","properties":{"Info":"Silos artista instalados","Name":"Zona de criativos coworking","Love":"","Size":"","Color":""},"geometry":{"type":"Point","coordinates":[-9.139584,39.402485]}},{"type":"Feature","properties":{"Name":"Made in china","Love":"","Size":12},"geometry":{"type":"Point","coordinates":[-9.135247,39.407448]}},{"type":"Feature","properties":{"marker-color":"#7e7e7e","marker-size":"medium","marker-symbol":"","Name":"Large buildings area","Love":"bad"},"geometry":{"type":"Point","coordinates":[-9.138726,39.407517]}},{"type":"Feature","properties":{"Name":"Smells","Size":12},"geometry":{"type":"Point","coordinates":[-9.132299,39.403256]}},{"type":"Feature","properties":{"Info":"Museu de cerâmica antiga fabrica Bordalo Pinheiro","Love":"sapo","Name":"Tradition area ceramic","Size":"","Color":""},"geometry":{"type":"Point","coordinates":[-9.130288,39.399894]}},{"type":"Feature","properties":{"Name":"without tourists local population","Color":"","Info":"Habitantes locais "},"geometry":{"type":"Point","coordinates":[-9.144058,39.406058]}},{"type":"Feature","properties":{"marker-color":"#7e7e7e","marker-size":"medium","marker-symbol":"","Name":"Museus sempre vazios","Color":"","Info":"Zona de museus ","Love":"","Size":""},"geometry":{"type":"Point","coordinates":[-9.132278,39.398737]}},{"type":"Feature","properties":{"Name":"Tourist traps","Color":"","Love":"bad","Size":"","Info":"Rua direita "},"geometry":{"type":"Point","coordinates":[-9.157526,39.360347]}},{"type":"Feature","properties":{"Name":"Esta praia não é para velhos","Love":"froid","Info":"Vento e frio"},"geometry":{"type":"Point","coordinates":[-9.232464,39.431751]}},{"type":"Feature","properties":{"Name":"train station out of service"},"geometry":{"type":"Point","coordinates":[-9.159282,39.365077]}},{"type":"Feature","properties":{"Name":"Popular area  ","Color":"","Size":25,"Info":"Rua dos artistas"},"geometry":{"type":"Point","coordinates":[-9.138919,39.403728]}},{"type":"Feature","properties":{"Name":"Atendado ambiental especulação imobiliária ","Love":"mort","Color":"","Info":"Golfes e moradias para milionarios"},"geometry":{"type":"Point","coordinates":[-9.244137,39.411927]}},{"type":"Feature","properties":{"Name":"Praia dos gordos","Info":"Praia para familias e pessoas de idade","Size":14},"geometry":{"type":"Point","coordinates":[-9.227057,39.429531]}},{"type":"Feature","properties":{"Name":"Mariscadores motos de água , pedal, gaivotas e patos  ","Love":""},"geometry":{"type":"Point","coordinates":[-9.219933,39.421707]}},{"type":"Feature","properties":{"Name":"wild nature flamingos","Info":"Local onde param flamimgos","Love":"nature"},"geometry":{"type":"Point","coordinates":[-9.189034,39.404466]}},{"type":"Feature","properties":{"Name":"Estrangeiros instalados","Love":"pff","Info":"Estrangeiros  reformados ","Size":"","Color":""},"geometry":{"type":"Point","coordinates":[-9.223409,39.434204]}},{"type":"Feature","properties":{"Name":"golf for rich","Love":"pff"},"geometry":{"type":"Point","coordinates":[-9.28319,39.389509]}},{"type":"Feature","properties":{"Info":"fishermen","Name":"Fishermen"},"geometry":{"type":"Point","coordinates":[-9.239244,39.426381]}},{"type":"Feature","properties":{"Name":"Construção descontrolada","Love":"bad","Size":14},"geometry":{"type":"Point","coordinates":[-9.126205,39.408827]}},{"type":"Feature","properties":{"Love":"praia","Name":"Beach"},"geometry":{"type":"Point","coordinates":[-9.272976,39.402642]}},{"type":"Feature","properties":{"Name":"Tradicional area","Info":"area preservada","Love":"hot","Size":13},"geometry":{"type":"Point","coordinates":[-9.131452,39.402394]}},{"type":"Feature","properties":{"Name":"Residencial area","Love":"","Size":"13","Info":"Zona residencial","Color":""},"geometry":{"type":"Point","coordinates":[-9.128394,39.398903]}},{"type":"Feature","properties":{"Name":"Rua comercial sem carros","Love":"hot","Size":"12","Info":"Rua sem carros comercios","Color":""},"geometry":{"type":"Point","coordinates":[-9.134617,39.404566]}},{"type":"Feature","properties":{"Name":"Estudantes artistas","Love":"hot","Size":"","Info":"Escola de arte e design","Color":""},"geometry":{"type":"Point","coordinates":[-9.134746,39.395429]}},{"type":"Feature","properties":{"Name":"Chorasqueira ao ar livre","Love":"bad","Size":"","Info":"","Color":""},"geometry":{"type":"Point","coordinates":[-9.201994,39.411496]}},{"type":"Feature","properties":{"Name":"Mosquitos","Love":"","Size":"","Info":"Zona de mosquitos no fim de verão","Color":""},"geometry":{"type":"Point","coordinates":[-9.220705,39.409208]}},{"type":"Feature","properties":{"Name":"Eucaliptos","Love":"","Size":"","Info":"Zona de eucaliptos","Color":""},"geometry":{"type":"Point","coordinates":[-9.226069,39.397171]}},{"type":"Feature","properties":{"Name":"pic nic area","Love":"picnic","Size":"","Info":"","Color":""},"geometry":{"type":"Point","coordinates":[-9.218516,39.398265]}},{"type":"Feature","properties":{"Name":"Parai de reformados estrangeiros e familias","Love":"ennui","Size":"","Info":"","Color":""},"geometry":{"type":"Point","coordinates":[-9.137278,39.504571]}},{"type":"Feature","properties":{"Name":"Resturantes populares","Love":"restaurante","Size":"","Info":"","Color":""},"geometry":{"type":"Point","coordinates":[-9.130669,39.432746]}},{"type":"Feature","properties":{"Name":"Zona de bares para exibição","Love":"","Size":"","Info":"","Color":""},"geometry":{"type":"Point","coordinates":[-9.227593,39.432414]}},{"type":"Feature","properties":{"Name":"Tradicional area","Love":"hot","Size":"","Info":"Centro da cidade","Color":""},"geometry":{"type":"Point","coordinates":[-9.214756,39.435261]}},{"type":"Feature","properties":{"Name":"Ruina de discotéca famosa","Love":"","Size":"13","Info":"Passado gloriosa discoteca Green Hill","Color":""},"geometry":{"type":"Point","coordinates":[-9.21783,39.440286]}},{"type":"Feature","properties":{"Name":"cafés, loja hipster rua sem carros","Love":"hot","Size":"13","Info":"","Color":""},"geometry":{"type":"Point","coordinates":[-9.135722,39.405162]}},{"type":"Feature","properties":{"Name":"Residence area","Love":"","Size":"13","Info":"","Color":""},"geometry":{"type":"Point","coordinates":[-9.125605,39.407019]}},{"type":"Feature","properties":{"Name":"Arrumadores","Love":"","Size":"12","Info":"","Color":""},"geometry":{"type":"Point","coordinates":[-9.130476,39.405121]}},{"type":"Feature","properties":{"Name":"Street art ","Love":"","Size":"","Info":"","Color":""},"geometry":{"type":"Point","coordinates":[-9.133233,39.406393]}}]}